{
   "type": "FeatureCollection",
   "features": [
  {
    "type": "Feature",
    "geometry": {
       "type": "Point",
       "coordinates":  [ 145.035209,-37.917215 ]
    },
    "properties": {
    "Theme":"Health food store",
    "Sub_Theme":"Health food store",
    "Feature_Name":"Bentleigh Health Foods",
    "Address":"325 Centre Rd, Bentleigh VIC 3204",
    "City":"Bentleigh",
    "Website":"bentleighhealthfoods.com.au",
    "Phone":"(03) 9557 6551"
    }
  },
  {
    "type": "Feature",
    "geometry": {
       "type": "Point",
       "coordinates":  [ 145.043437,-37.902482 ]
    },
    "properties": {
    "Theme":"Health food store",
    "Sub_Theme":"Health food store",
    "Feature_Name":"Sunnybrook Health Store",
    "Address":"553A North Rd, Ormond VIC 3204",
    "City":"Ormond",
    "Website":"sunnybrookhealthstore.com.au",
    "Phone":"(03) 9578 6400"
    }
  },
  {
    "type": "Feature",
    "geometry": {
       "type": "Point",
       "coordinates":  [ 145.028159,-37.858177 ]
    },
    "properties": {
    "Theme":"Health food store",
    "Sub_Theme":"Health food store",
    "Feature_Name":"Naked Foods Organic & Health Foods Bulk - Malvern",
    "Address":"Shop 3, Malvern Central Shopping Centre, Armadale VIC 3144",
    "City":"Armadale",
    "Website":"nakedfoods.com.au",
    "Phone":"(03) 9576 0324"
    }
  },
  {
    "type": "Feature",
    "geometry": {
       "type": "Point",
       "coordinates":  [ 145.005414,-37.852552 ]
    },
    "properties": {
    "Theme":"Health food store",
    "Sub_Theme":"Health food store",
    "Feature_Name":"Beyond Organic Wholefoods",
    "Address":"513 High St, Prahran VIC 3181",
    "City":"Prahran",
    "Website":"beyondorganicwholefoods.com.au",
    "Phone":"(03) 9521 2555"
    }
  },
  {
    "type": "Feature",
    "geometry": {
       "type": "Point",
       "coordinates":  [ 144.993569,-37.845639 ]
    },
    "properties": {
    "Theme":"Health food store",
    "Sub_Theme":"Health food store",
    "Feature_Name":"Prahran Health Foods",
    "Address":"201 Commercial Rd, South Yarra VIC 3141",
    "City":"South Yarra",
    "Website":"prahranhealthfoods.com.au",
    "Phone":"(03) 9827 5983"
    }
  },
  {
    "type": "Feature",
    "geometry": {
       "type": "Point",
       "coordinates":  [ 144.994084,-37.823947 ]
    },
    "properties": {
    "Theme":"Health food store",
    "Sub_Theme":"Health food store",
    "Feature_Name":"Lite and Healthy Superfoods",
    "Address":"87 Swan St, Richmond VIC 3121",
    "City":"Richmond",
    "Website":"",
    "Phone":"0405 562 905"
    }
  },
  {
    "type": "Feature",
    "geometry": {
       "type": "Point",
       "coordinates":  [ 144.960782,-37.831675 ]
    },
    "properties": {
    "Theme":"Health food store",
    "Sub_Theme":"Health food store",
    "Feature_Name":"Evelyn Faye Nutrition",
    "Address":"269 Clarendon St, South Melbourne VIC 3205",
    "City":"South Melbourne",
    "Website":"evelynfaye.com.au",
    "Phone":"(03) 9686 0086"
    }
  },
  {
    "type": "Feature",
    "geometry": {
       "type": "Point",
       "coordinates":  [ 144.964043,-37.815133 ]
    },
    "properties": {
    "Theme":"Health food store",
    "Sub_Theme":"Health food store",
    "Feature_Name":"Great Earth",
    "Address":"90 Elizabeth St, Melbourne VIC 3000",
    "City":"Melbourne",
    "Website":"greatearth.com",
    "Phone":"(03) 9639 2533"
    }
  },
  {
    "type": "Feature",
    "geometry": {
       "type": "Point",
       "coordinates":  [ 144.956662,-37.830862 ]
    },
    "properties": {
    "Theme":"Health food store",
    "Sub_Theme":"Health food store",
    "Feature_Name":"Moses and Co. Market Wholefoods",
    "Address":"South Melbourne Market, South Melbourne VIC 3205",
    "City":"South Melbourne",
    "Website":"mosesandco.com.au",
    "Phone":"(03) 9690 6093"
    }
  },
  {
    "type": "Feature",
    "geometry": {
       "type": "Point",
       "coordinates":  [ 144.957348,-37.815811 ]
    },
    "properties": {
    "Theme":"Health food store",
    "Sub_Theme":"Health food store",
    "Feature_Name":"Smooth Foods",
    "Address":"level 1/530 Little Collins St, Melbourne VIC 3000",
    "City":"Melbourne",
    "Website":"smooth-foods.com.au",
    "Phone":"(03) 9909 7081"
    }
  },
  {
    "type": "Feature",
    "geometry": {
       "type": "Point",
       "coordinates":  [ 144.983956,-37.802113 ]
    },
    "properties": {
    "Theme":"Health food store",
    "Sub_Theme":"Health food store",
    "Feature_Name":"The Source Bulk Foods",
    "Address":"202 Smith St, Collingwood VIC 3066",
    "City":"Collingwood",
    "Website":"thesourcebulkfoods.com.au",
    "Phone":"(03) 9041 7711"
    }
  },
  {
    "type": "Feature",
    "geometry": {
       "type": "Point",
       "coordinates":  [ 144.983613,-37.799129 ]
    },
    "properties": {
    "Theme":"Health food store",
    "Sub_Theme":"Health food store",
    "Feature_Name":"Organic Wholefoods Fitzroy",
    "Address":"277 Smith St, Fitzroy VIC 3065",
    "City":"Fitzroy",
    "Website":"wholefoods.com.au",
    "Phone":"(03) 9419 5347"
    }
  },
  {
    "type": "Feature",
    "geometry": {
       "type": "Point",
       "coordinates":  [ 144.997345,-37.778508 ]
    },
    "properties": {
    "Theme":"Health food store",
    "Sub_Theme":"Health food store",
    "Feature_Name":"Terra Madre",
    "Address":"101/105 High St, Northcote VIC 3070",
    "City":"Northcote",
    "Website":"terramadre.com.au",
    "Phone":"(03) 9489 5824"
    }
  },
  {
    "type": "Feature",
    "geometry": {
       "type": "Point",
       "coordinates":  [ 144.960782,-37.774302 ]
    },
    "properties": {
    "Theme":"Health food store",
    "Sub_Theme":"Health food store",
    "Feature_Name":"The Source Bulk Foods",
    "Address":"112 Sydney Rd, Brunswick VIC 3056",
    "City":"Brunswick",
    "Website":"thesourcebulkfoods.com.au",
    "Phone":"(03) 9388 1005"
    }
  },
  {
    "type": "Feature",
    "geometry": {
       "type": "Point",
       "coordinates":  [ 144.998719,-37.770774 ]
    },
    "properties": {
    "Theme":"Health food store",
    "Sub_Theme":"Health food store",
    "Feature_Name":"Great Earth",
    "Address":"282 High St, Northcote VIC 3070",
    "City":"Northcote",
    "Website":"greatearth.com",
    "Phone":"(03) 9481 2612"
    }
  },
  {
    "type": "Feature",
    "geometry": {
       "type": "Point",
       "coordinates":  [ 144.921814,-37.763854 ]
    },
    "properties": {
    "Theme":"Health food store",
    "Sub_Theme":"Health food store",
    "Feature_Name":"Graina - Bulk Food Store",
    "Address":"Moonee Ponds Central Shopping Centre 3, 20 Homer St, Moonee Ponds VIC 3039",
    "City":"Moonee Ponds",
    "Website":"graina.com.au",
    "Phone":"(03) 9375 2398"
    }
  },
  {
    "type": "Feature",
    "geometry": {
       "type": "Point",
       "coordinates":  [ 144.889027,-37.815665 ]
    },
    "properties": {
    "Theme":"Health food store",
    "Sub_Theme":"Health food store",
    "Feature_Name":"For The Health Of It Natural Health Products",
    "Address":"73 Anderson St, Yarraville VIC 3013",
    "City":"Yarraville",
    "Website":"forthehealthofit.com.au",
    "Phone":"(03) 9314 3135"
    }
  }
]
};